[
    {
        "cultivar": "UNT1",
        "origin": "Spain",
        "city": "Madrid",
        "latitude": 40.4167047,
        "longitude": -3.7035825,
        "metadata": {
            "Reseq": "NA",
            "versus CAM": "NA",
            "Name1": "UNT1",
            "Name2": "NA",
            "Name3": "NA",
            "Origin": "CCE breeding program",
            "Provider": "CCE"
        }
    },
    {
        "cultivar": "UNT2",
        "origin": "Spain",
        "city": "Barcelona",
        "latitude": 42.5,
        "longitude": 2.1774322,
        "metadata": {
            "Reseq": "NA",
            "versus CAM": "NA",
            "Name1": "UNT2",
            "Name2": "NA",
            "Name3": "NA",
            "Origin": "CCE breeding program",
            "Provider": "CCE"
        }
    },
    {
        "cultivar": "UNT3",
        "origin": "Spain",
        "city": "Valencia",
        "latitude": 40.4697065,
        "longitude": -0.3763353,
        "metadata": {
            "Reseq": "NA",
            "versus CAM": "NA",
            "Name1": "UNT3",
            "Name2": "NA",
            "Name3": "NA",
            "Origin": "CCE breeding program",
            "Provider": "CCE"
        }
    },
    {
        "cultivar": "UNT4",
        "origin": "Spain",
        "city": "Seville",
        "latitude": 37.8,
        "longitude": -5.9825317,
        "metadata": {
            "Reseq": "NA",
            "versus CAM": "NA",
            "Name1": "UNT4",
            "Name2": "NA",
            "Name3": "NA",
            "Origin": "CCE breeding program",
            "Provider": "CCE"
        }
    },
    {
        "cultivar": "UNT5",
        "origin": "Spain",
        "city": "Porto",
    "latitude": 41.1579,
    "longitude": -8.6291,
        "metadata": {
            "Reseq": "NA",
            "versus CAM": "NA",
            "Name1": "UNT5",
            "Name2": "NA",
            "Name3": "NA",
            "Origin": "CCE breeding program",
            "Provider": "CCE"
        }
    },
    {
        "cultivar": "UNT6",
        "origin": "Spain",
        "city": "Vego",
        "latitude": 42.4579,
        "longitude": -8.6291,
            "metadata": {
            "Reseq": "NA",
            "versus CAM": "NA",
            "Name1": "UNT6",
            "Name2": "NA",
            "Name3": "NA",
            "Origin": "CCE breeding program",
            "Provider": "CCE"
        }
    },
    {
        "cultivar": "UNT7",
        "origin": "Spain",
        "city": "Malaga",
        "latitude": 37.7213028,
        "longitude": -4.4216366,
        "metadata": {
            "Reseq": "NA",
            "versus CAM": "NA",
            "Name1": "UNT7",
            "Name2": "NA",
            "Name3": "NA",
            "Origin": "CCE breeding program",
            "Provider": "CCE"
        }
    },
    {
        "cultivar": "UNT8",
        "origin": "Spain",
        "city": "Bilbao",
        "latitude": 43.2630018,
        "longitude": -2.9349852,
        "metadata": {
            "Reseq": "NA",
            "versus CAM": "NA",
            "Name1": "UNT8",
            "Name2": "NA",
            "Name3": "NA",
            "Origin": "CCE breeding program",
            "Provider": "CCE"
        }
    },
    {
        "cultivar": "UNT9",
        "origin": "Spain",
        "city": "Zaragoza",
        "latitude": 41.6521342,
        "longitude": -0.8809428,
        "metadata": {
            "Reseq": "NA",
            "versus CAM": "NA",
            "Name1": "UNT9",
            "Name2": "NA",
            "Name3": "NA",
            "Origin": "CCE breeding program",
            "Provider": "CCE"
        }
    },
    {
        "cultivar": "UNT10",
        "origin": "Spain",
        "city": "Granada",
        "latitude": 37.874995,
        "longitude": -3.5985347,
        "metadata": {
            "Reseq": "NA",
            "versus CAM": "NA",
            "Name1": "UNT10",
            "Name2": "NA",
            "Name3": "NA",
            "Origin": "CCE breeding program",
            "Provider": "CCE"
        }
    },
    {
        "cultivar": "UNT11",
        "origin": "Spain",
        "city": "Pamplona",
        "latitude": 42.8181992,
        "longitude": -1.6440089,
        "metadata": {
            "Reseq": "NA",
            "versus CAM": "NA",
            "Name1": "UNT11",
            "Name2": "NA",
            "Name3": "NA",
            "Origin": "CCE breeding program",
            "Provider": "CCE"
        }
    },
    {
        "cultivar": "UNT12",
        "origin": "Spain",
        "city": "Huelva",
        "latitude": 38,
    "longitude": -6.9484945,
        "metadata": {
            "Reseq": "NA",
            "versus CAM": "NA",
            "Name1": "UNT12",
            "Name2": "NA",
            "Name3": "NA",
            "Origin": "CCE breeding program",
            "Provider": "CCE"
        }
    },
    {
        "cultivar": "UNT13",
        "origin": "Spain",
        "city": "Salamanca",
        "latitude": 40.9651572,
        "longitude": -5.6638359,
        "metadata": {
            "Reseq": "NA",
            "versus CAM": "NA",
            "Name1": "UNT13",
            "Name2": "NA",
            "Name3": "NA",
            "Origin": "CCE breeding program",
            "Provider": "CCE"
        }
    },
    {
        "cultivar": "UNT14",
        "origin": "Spain",
        "city": "Burgos",
        "latitude": 42.343926,
    "longitude": -3.696977,
        "metadata": {
            "Reseq": "NA",
            "versus CAM": "NA",
            "Name1": "UNT14",
            "Name2": "NA",
            "Name3": "NA",
            "Origin": "CCE breeding program",
            "Provider": "CCE"
        }
    },
    {
        "cultivar": "UNT15",
        "origin": "Spain",
        "city": "Lleida",
        "latitude": 41.6147605,
    "longitude": 0.6267842,
        "metadata": {
            "Reseq": "NA",
            "versus CAM": "NA",
            "Name1": "UNT15",
            "Name2": "NA",
            "Name3": "NA",
            "Origin": "CCE breeding program",
            "Provider": "CCE"
        }
    },
    {
        "cultivar": "UNT16",
        "origin": "Spain",
        "city": "Badajoz",
        "latitude": 38.8780585,
        "longitude": -6.9702211,
        "metadata": {
            "Reseq": "NA",
            "versus CAM": "NA",
            "Name1": "UNT16",
            "Name2": "NA",
            "Name3": "NA",
            "Origin": "CCE breeding program",
            "Provider": "CCE"
        }
    },
    {
        "cultivar": "UNT17",
        "origin": "Spain",
        "city": "Ourense",
        "latitude": 42.3364,
        "longitude": -7.8636,
        "metadata": {
            "Reseq": "NA",
            "versus CAM": "NA",
            "Name1": "UNT17",
            "Name2": "NA",
            "Name3": "NA",
            "Origin": "CCE breeding program",
            "Provider": "CCE"
        }
    },
    {
        "cultivar": "UNT18",
        "origin": "France",
        "city": "Paris",
        "latitude": 48.8534951,
        "longitude": 2.3483915,
        "metadata": {
            "Reseq": "NA",
            "versus CAM": "NA",
            "Name1": "cv C\u00e9line",
            "Name2": "NA",
            "Name3": "NA",
            "Origin": "Public accession",
            "Provider": "INRAe"
        }
    },
    {
        "cultivar": "UNT19",
        "origin": "Poland",
        "city": "Warsaw",
        "latitude": 52.2319581,
        "longitude": 21.0067249,
        "metadata": {
            "Reseq": "CONFIRMED",
            "versus CAM": "NA",
            "Name1": "[CN101981]",
            "Name2": "NA",
            "Name3": "NA",
            "Origin": "Public accession",
            "Provider": "INRAe"
        }
    },
    {
        "cultivar": "UNT20",
        "origin": "Unknown",
        "city": "Unknown",
        "latitude": -70.029422,
        "longitude": -150.36195598496681,
        "metadata": {
            "Reseq": "WRONG",
            "versus CAM": "NA",
            "Name1": "[CN101985]",
            "Name2": "NA",
            "Name3": "NA",
            "Origin": "Public accession",
            "Provider": "INRAe"
        }
    },
    {
        "cultivar": "UNT21",
        "origin": "Poland",
        "city": "Lublin",
        "latitude": 51.250559,
        "longitude": 22.5701022,
        "metadata": {
            "Reseq": "CONFIRMED",
            "versus CAM": "NA",
            "Name1": "CN101980",
            "Name2": "Przybrodzka ",
            "Name3": "PI 311736",
            "Origin": "Public accession",
            "Provider": "INRAe"
        }
    },
    {
        "cultivar": "UNT22",
        "origin": "Former Yugoslavia",
        "city": "Ljubljana",
        "latitude": 46.0500268,
        "longitude": 14.5069289,
        "metadata": {
            "Reseq": "NA",
            "versus CAM": "NA",
            "Name1": "CN101982",
            "Name2": "NA",
            "Name3": "NA",
            "Origin": "Public accession",
            "Provider": "INRAe"
        }
    },
    {
        "cultivar": "UNT23",
        "origin": "Germany",
        "city": " Berlin",
        "latitude": 52.5170365,
        "longitude": 13.3888599,
        "metadata": {
            "Reseq": "NA",
            "versus CAM": "NA",
            "Name1": "CN101986",
            "Name2": "Giessen N\u00b03",
            "Name3": "PI 650148",
            "Origin": "Public accession",
            "Provider": "INRAe"
        }
    },
    {
        "cultivar": "UNT24",
        "origin": "Russia",
        "city": " Moscow",
        "latitude": 55.625578,
        "longitude": 37.6063916,
        "metadata": {
            "Reseq": "NA",
            "versus CAM": "NA",
            "Name1": "CN111335",
            "Name2": "Chulymskij",
            "Name3": "",
            "Origin": "Public accession",
            "Provider": "INRAe"
        }
    },
    {
        "cultivar": "UNT25",
        "origin": "Russia",
        "city": " Kazan",
        "latitude": 55.625578,
        "longitude": 32.6813148,
        "metadata": {
            "Reseq": "CONFIRMED",
            "versus CAM": "NA",
            "Name1": "CN111672",
            "Name2": "PI258366 ",
            "Name3": "NA",
            "Origin": "Public accession",
            "Provider": "INRAe"
        }
    },
    {
        "cultivar": "UNT26",
        "origin": "Russia",
        "city": " Ufa",
        "latitude": 52.3870936,
        "longitude": 13.122814833095239,
        "metadata": {
            "Reseq": "NA",
            "versus CAM": "NA",
            "Name1": "CN111330",
            "Name2": "VIR-4027",
            "Name3": "NA",
            "Origin": "Public accession",
            "Provider": "INRAe"
        }
    },
    {
        "cultivar": "UNT27",
        "origin": "Russia",
        "city": " Omsk",
        "latitude": 54.991375,
        "longitude": 73.371529,
        "metadata": {
            "Reseq": "CONFIRMED",
            "versus CAM": "NA",
            "Name1": "CN30475",
            "Name2": "Voronezskij 349",
            "Name3": "Cs110 CAM 174",
            "Origin": "Public accession",
            "Provider": "INRAe"
        }
    },
    {
        "cultivar": "UNT28",
        "origin": "Russia",
        "city": " Volgograd",
        "latitude": 48.7081906,
        "longitude": 44.5153353,
        "metadata": {
            "Reseq": "NA",
            "versus CAM": "NA",
            "Name1": "CN30476",
            "Name2": "Voronezskij 339 ",
            "Name3": "",
            "Origin": "Public accession",
            "Provider": "INRAe"
        }
    },
    {
        "cultivar": "UNT29",
        "origin": "Russia",
        "city": " Saratov",
        "latitude": 51.530018,
        "longitude": 46.034683,
        "metadata": {
            "Reseq": "OK",
            "versus CAM": "BEST CAM25 and CAMPUB25 ok",
            "Name1": "CN30478",
            "Name2": "Omskij Mestnyj ",
            "Name3": "Cs006, CAM 25",
            "Origin": "Public accession",
            "Provider": "INRAe"
        }
    },
    {
        "cultivar": "UNT30",
        "origin": "Russia",
        "city": " Tyumen",
        "latitude": 57.153534,
        "longitude": 65.542274,
        "metadata": {
            "Reseq": "NA",
            "versus CAM": "NA",
            "Name1": "CN30479",
            "Name2": "Irkuskiij Mestnyj",
            "Name3": "",
            "Origin": "Public accession",
            "Provider": "INRAe"
        }
    },
    {
        "cultivar": "UNT31",
        "origin": "Germany",
        "city": " Hamburg",
        "latitude": 53.5672881,
        "longitude": 9.941726150411604,
        "metadata": {
            "Reseq": "NA",
            "versus CAM": "CS215 not CS218; CAMPUB68 CAM68",
            "Name1": "CN101987",
            "Name2": "Giessen N\u00b04",
            "Name3": "PI 650149, Cs218",
            "Origin": "Public accession",
            "Provider": "INRAe"
        }
    },
    {
        "cultivar": "UNT32",
        "origin": "Denmark",
        "city": "Copenhagen",
        "latitude": 55.6867243,
        "longitude": 10.5700724,
        "metadata": {
            "Reseq": "NA",
            "versus CAM": "not CAM67 ",
            "Name1": "CN101988 ",
            "Name2": "Hoga",
            "Name3": "PI 650150 , Cs035, CAM 67",
            "Origin": "Public accession",
            "Provider": "INRAe"
        }
    },
    {
        "cultivar": "UNT33",
        "origin": "Unknown",
        "city": "Unknown",
        "latitude": -70.029422,
        "longitude": -145.36195598496681,
        "metadata": {
            "Reseq": "NA",
            "versus CAM": "NA",
            "Name1": "CN101989",
            "Name2": "NA",
            "Name3": "NA",
            "Origin": "Public accession",
            "Provider": "INRAe"
        }
    },
    {
        "cultivar": "UNT34",
        "origin": "Austria",
        "city": "Graz",
        "latitude": 47.0708678,
        "longitude": 15.4382786,
        "metadata": {
            "Reseq": "ok",
            "versus CAM": "CAM134",
            "Name1": "Calena",
            "Name2": "Cs076",
            "Name3": "CAM 134",
            "Origin": "Public accession",
            "Provider": "AIT"
        }
    },
    {
        "cultivar": "UNT35",
        "origin": "Hungary",
        "city": " Budapest",
        "latitude": 47.4978918,
        "longitude": 19.0401609,
        "metadata": {
            "Reseq": "NA",
            "versus CAM": "NA",
            "Name1": "Gomholka",
            "Name2": "NA",
            "Name3": "NA",
            "Origin": "Public accession",
            "Provider": "AIT"
        }
    },
    {
        "cultivar": "UNT37",
        "origin": "China",
        "city": " Beijing",
        "latitude": 39.9057136,
        "longitude": 116.3912972,
        "metadata": {
            "Reseq": "NA",
            "versus CAM": "NA",
            "Name1": "Ya-ma-ji",
            "Name2": "NA",
            "Name3": "NA",
            "Origin": "Public accession",
            "Provider": "AIT"
        }
    },
    {
        "cultivar": "UNT38",
        "origin": "Kyrgyzstan",
        "city": " Aydarken",
        "latitude": 40.9402444,
        "longitude": 73.3429162,
        "metadata": {
            "Reseq": "CONFIRMED",
            "versus CAM": "NA",
            "Name1": "Kirgizskij",
            "Name2": "Cs028",
            "Name3": "CAM 57",
            "Origin": "Public accession",
            "Provider": "AIT"
        }
    },
    {
        "cultivar": "UNT39",
        "origin": "Russia",
        "city": " Tolyatti",
        "latitude": 53.5149884,
        "longitude": 49.4073316,
        "metadata": {
            "Reseq": "NA",
            "versus CAM": "NA",
            "Name1": "Irkutskij local",
            "Name2": "NA",
            "Name3": "NA",
            "Origin": "Public accession",
            "Provider": "AIT"
        }
    },
    {
        "cultivar": "UNT40",
        "origin": "Austria",
        "city": "Vienna",
        "latitude": 48.2083537,
        "longitude": 16.3725042,
        "metadata": {
            "Reseq": "NA",
            "versus CAM": "NA",
            "Name1": "Korneuburg",
            "Name2": "NA",
            "Name3": "NA",
            "Origin": "Public accession",
            "Provider": "AIT"
        }
    },
    {
        "cultivar": "UNT42",
        "origin": "Austria",
        "city": "Linz",
        "latitude": 48.3059078,
        "longitude": 14.286198,
        "metadata": {
            "Reseq": "NA",
            "versus CAM": "NA",
            "Name1": "CA13X_15_21",
            "Name2": "NA",
            "Name3": "NA",
            "Origin": "BOKU breeding line",
            "Provider": "UNIBO"
        }
    },
    {
        "cultivar": "UNT43",
        "origin": "Austria",
        "city": "Salzburg",
        "latitude": 47.7981346,
        "longitude": 13.0464806,
        "metadata": {
            "Reseq": "NA",
            "versus CAM": "NA",
            "Name1": "CJ6X_78",
            "Name2": "NA",
            "Name3": "NA",
            "Origin": "BOKU breeding line",
            "Provider": "UNIBO"
        }
    },
    {
        "cultivar": "UNT44",
        "origin": "Austria",
        "city": "Innsbruck",
        "latitude": 47.4654296,
        "longitude": 11.927685,
        "metadata": {
            "Reseq": "NA",
            "versus CAM": "NA",
            "Name1": "CK1X_129",
            "Name2": "NA",
            "Name3": "NA",
            "Origin": "BOKU breeding line",
            "Provider": "UNIBO"
        }
    },
    {
        "cultivar": "UNT45",
        "origin": "Germany",
        "city": " Munich",
        "latitude": 48.1371079,
        "longitude": 11.5753822,
        "metadata": {
            "Reseq": "NA",
            "versus CAM": "CS002 and CS200",
            "Name1": "BGRC51558",
            "Name2": "NA",
            "Name3": "NA",
            "Origin": "Public accession",
            "Provider": "UNIBO"
        }
    },
    {
        "cultivar": "UNT46",
        "origin": "Russia",
        "city": " Barnaul",
        "latitude": 53.3475493,
        "longitude": 83.7788448,
        "metadata": {
            "Reseq": "NA",
            "versus CAM": "NA",
            "Name1": "CUOO5",
            "Name2": "NA",
            "Name3": "NA",
            "Origin": "Public accession",
            "Provider": "UNIBO"
        }
    },
    {
        "cultivar": "UNT47",
        "origin": "Austria",
        "city": "Villach",
        "latitude": 46.96167284,
        "longitude": 13.8500268,
        "metadata": {
            "Reseq": "NA",
            "versus CAM": "NA",
            "Name1": "CJ13X-115",
            "Name2": "NA",
            "Name3": "NA",
            "Origin": "Public accession",
            "Provider": "UNIBO"
        }
    },
    {
        "cultivar": "UNT50",
        "origin": "Germany",
        "city": " Cologne",
        "latitude": 51.735851,
        "longitude": 7.10066,
        "metadata": {
            "Reseq": "ok",
            "versus CAM": "CAMPUB147",
            "Name1": "Cs083",
            "Name2": "CAM 147",
            "Name3": "STAMM 09X13",
            "Origin": "Public accession",
            "Provider": "INRAe"
        }
    },
    {
        "cultivar": "UNT52",
        "origin": "Germany",
        "city": " Frankfurt",
        "latitude": 50.1106444,
        "longitude": 8.6820917,
        "metadata": {
            "Reseq": "probably ok",
            "versus CAM": "CAMPUB156; CAM156 but only 0.85;0.86",
            "Name1": "Cs092",
            "Name2": "CAM 156",
            "Name3": "STAMM 09X15",
            "Origin": "Public accession",
            "Provider": "INRAe"
        }
    },
    {
        "cultivar": "UNT53",
        "origin": "Germany",
        "city": " Stuttgart",
        "latitude": 48.7784485,
        "longitude": 9.1800132,
        "metadata": {
            "Reseq": "ok",
            "versus CAM": "CAMPUB159",
            "Name1": "Cs095",
            "Name2": "CAM 159",
            "Name3": "STAMM 13X15",
            "Origin": "Public accession",
            "Provider": "INRAe"
        }
    },
    {
        "cultivar": "UNT54",
        "origin": "Germany",
        "city": " Bonn",
        "latitude": 50.735851,
        "longitude": 7.10066,
        "metadata": {
            "Reseq": "ok",
            "versus CAM": "CAMPUB165; CAM165",
            "Name1": "Cs101",
            "Name2": "CAM 165",
            "Name3": "STAMM 04X05",
            "Origin": "Public accession",
            "Provider": "INRAe"
        }
    },
    {
        "cultivar": "UNT55",
        "origin": "Germany",
        "city": " D\u00fcsseldorf",
        "latitude": 51.2254018,
        "longitude": 6.7763137,
        "metadata": {
            "Reseq": "maybe",
            "versus CAM": "CAMPUB159; CAMPUB167 runner up",
            "Name1": "Cs103",
            "Name2": "CAM 167",
            "Name3": "STAMM 06X14C",
            "Origin": "Public accession",
            "Provider": "INRAe"
        }
    },
    {
        "cultivar": "UNT56",
        "origin": "Germany",
        "city": " Dortmund",
        "latitude": 51.5142273,
        "longitude": 7.4652789,
        "metadata": {
            "Reseq": "ok",
            "versus CAM": "CAMPUB232 CAM232",
            "Name1": "Cs151",
            "Name2": "CAM 232",
            "Name3": "PRFGL. 85",
            "Origin": "Public accession",
            "Provider": "INRAe"
        }
    },
    {
        "cultivar": "UNT57",
        "origin": "Germany",
        "city": " Leipzig",
        "latitude": 51.3406321,
        "longitude": 12.3747329,
        "metadata": {
            "Reseq": "ok",
            "versus CAM": "CAMPUB278; CAM278",
            "Name1": "Cs193",
            "Name2": "CAM 278",
            "Name3": "STAMM 02X11B",
            "Origin": "Public accession",
            "Provider": "INRAe"
        }
    },
    {
        "cultivar": "UNT58",
        "origin": "Denmark",
        "city": "Kolding",
        "latitude": 55.4894999,
        "longitude": 9.47905,
        "metadata": {
            "Reseq": "NA",
            "versus CAM": "CAMPUB187;180",
            "Name1": "Cs205",
            "Name2": "PI 597833",
            "Name3": "163-2073-72",
            "Origin": "Public accession",
            "Provider": "INRAe"
        }
    },
    {
        "cultivar": "UNT59",
        "origin": "Austria",
        "city": "Steyr",
        "latitude": 48.0390046,
        "longitude": 14.4191276,
        "metadata": {
            "Reseq": "maybe",
            "versus CAM": "CAM50;cam38 good values CAMPUB38 50",
            "Name1": "Cs233",
            "Name2": "PI 650164",
            "Name3": "CSS-CAM38",
            "Origin": "Public accession",
            "Provider": "INRAe"
        }
    }
]